[
  {
    "Latitude": "37.3719",
    "Longitude": "-79.8164",
    "RegionName": "us-east-1"
  },
  {
    "Latitude": "36.6681",
    "Longitude": "-78.3889",
    "RegionName": "us-east-2"
  },
  {
    "Latitude": "29.4167",
    "Longitude": "-98.5",
    "RegionName": "us-gov-east-1"
  },
  {
    "Latitude": "47.233",
    "Longitude": "-119.852",
    "RegionName": "us-west-2"
  },
  {
    "Latitude": "33.448376",
    "Longitude": "-112.074036",
    "RegionName": "us-west-3"
  },
  {
    "Latitude": "-33.86",
    "Longitude": "151.2094",
    "RegionName": "ap-northeast-1"
  },
  {
    "Latitude": "1.283",
    "Longitude": "103.833",
    "RegionName": "ap-northeast-2"
  },
  {
    "Latitude": "53.3478",
    "Longitude": "-6.2597",
    "RegionName": "eu-north-1"
  },
  {
    "Latitude": "60.67488",
    "Longitude": "17.14127",
    "RegionName": "sa-east-1"
  },
  {
    "Latitude": "50.941",
    "Longitude": "-0.799",
    "RegionName": "uksouth"
  },
  {
    "Latitude": "52.3667",
    "Longitude": "4.9",
    "RegionName": "eu-west-1"
  },
  {
    "Latitude": "52.3667",
    "Longitude": "4.9",
    "RegionName": "eu-west-2"
  },
  {
    "Latitude": "52.3667",
    "Longitude": "4.9",
    "RegionName": "eu-west-3"
  },
  {
    "Latitude": "41.5908",
    "Longitude": "-93.6208",
    "RegionName": "us-gov-west-1"
  },
  {
    "Latitude": "-25.731340",
    "Longitude": "28.218370",
    "RegionName": "af-north-1"
  },
  {
    "Latitude": "18.5822",
    "Longitude": "73.9197",
    "RegionName": "ap-east-1"
  },
  {
    "Latitude": "22.267",
    "Longitude": "114.188",
    "RegionName": "ap-south-1"
  },
  {
    "Latitude": "35.68",
    "Longitude": "139.77",
    "RegionName": "cn-northwest-1"
  },
  {
    "Latitude": "37.5665",
    "Longitude": "126.9780",
    "RegionName": "cn-north-1"
  },
  {
    "Latitude": "43.653",
    "Longitude": "-79.383",
    "RegionName": "ca-central-1"
  },
  {
    "Latitude": "46.3772",
    "Longitude": "2.3730",
    "RegionName": "eu-central-1"
  },
  {
    "Latitude": "50.110924",
    "Longitude": "8.682127",
    "RegionName": "ap-northeast-3"
  },
  {
    "Latitude": "59.913868",
    "Longitude": "10.752245",
    "RegionName": "norwayeast"
  },
  {
    "Latitude": "-23.55",
    "Longitude": "-46.633",
    "RegionName": "brazilsouth"
  },
  {
    "Latitude": "36.6681",
    "Longitude": "-78.3889",
    "RegionName": "eastus2euap"
  },
  {
    "Latitude": "41.8819",
    "Longitude": "-87.6278",
    "RegionName": "northcentralus"
  },
  {
    "Latitude": "37.783",
    "Longitude": "-122.417",
    "RegionName": "us-west-1"
  },
  {
    "Latitude": "22.470701",
    "Longitude": "70.05773",
    "RegionName": "jioindiawest"
  },
  {
    "Latitude": "47.451542",
    "Longitude": "8.564572",
    "RegionName": "switzerlandnorth"
  },
  {
    "Latitude": "25.266666",
    "Longitude": "55.316666",
    "RegionName": "uaenorth"
  },
  {
    "Latitude": "41.5908",
    "Longitude": "-93.6208",
    "RegionName": "centraluseuap"
  },
  {
    "Latitude": "40.890",
    "Longitude": "-110.234",
    "RegionName": "westcentralus"
  },
  {
    "Latitude": "-34.075691",
    "Longitude": "18.843266",
    "RegionName": "af-south-1"
  },
  {
    "Latitude": "-35.3075",
    "Longitude": "149.1244",
    "RegionName": "ap-southeast-3"
  },
  {
    "Latitude": "-35.3075",
    "Longitude": "149.1244",
    "RegionName": "ap-southeast-2"
  },
  {
    "Latitude": "-37.8136",
    "Longitude": "144.9631",
    "RegionName": "ap-southeast-1"
  },
  {
    "Latitude": "34.6939",
    "Longitude": "135.5022",
    "RegionName": "japanwest"
  },
  {
    "Latitude": "21.146633",
    "Longitude": "79.08886",
    "RegionName": "jioindiacentral"
  },
  {
    "Latitude": "35.1796",
    "Longitude": "129.0756",
    "RegionName": "koreasouth"
  },
  {
    "Latitude": "12.9822",
    "Longitude": "80.1636",
    "RegionName": "southindia"
  },
  {
    "Latitude": "19.088",
    "Longitude": "72.868",
    "RegionName": "westindia"
  },
  {
    "Latitude": "46.817",
    "Longitude": "-71.217",
    "RegionName": "canadaeast"
  },
  {
    "Latitude": "43.8345",
    "Longitude": "2.1972",
    "RegionName": "eu-south-1"
  },
  {
    "Latitude": "53.073635",
    "Longitude": "8.806422",
    "RegionName": "germanynorth"
  },
  {
    "Latitude": "58.969975",
    "Longitude": "5.733107",
    "RegionName": "norwaywest"
  },
  {
    "Latitude": "46.204391",
    "Longitude": "6.143158",
    "RegionName": "switzerlandwest"
  },
  {
    "Latitude": "53.427",
    "Longitude": "-3.084",
    "RegionName": "ukwest"
  },
  {
    "Latitude": "24.466667",
    "Longitude": "54.366669",
    "RegionName": "me-south-1"
  },
  {
    "Latitude": "-22.90278",
    "Longitude": "-43.2075",
    "RegionName": "brazilsoutheast"
  }
]
